,City,Country,Lat,Lng,Max Temp,Humidity,Cloudiness,Wind Speed,Current Description
0,Georgetown,MY,5.4112,100.3354,78.75,91,20,4.61,thunderstorm
1,Ushuaia,AR,-54.8,-68.3,40.66,75,40,23.02,scattered clouds
2,Conde,BR,-7.2597,-34.9075,76.46,83,0,11.5,clear sky
3,Cape Town,ZA,-33.9258,18.4232,55.11,73,40,8.05,scattered clouds
4,Gacko,BA,43.1672,18.5353,47.46,95,77,5.53,broken clouds
5,Saint-Joseph,RE,-21.3667,55.6167,68.38,79,22,12.93,light rain
6,Gamba,GA,-2.65,10.0,74.75,83,100,6.67,overcast clouds
7,Busselton,AU,-33.65,115.3333,53.46,83,96,2.68,overcast clouds
8,Bjornevatn,NO,69.6672,29.9847,44.94,93,75,13.8,broken clouds
9,Zhob,PK,31.3411,69.4481,73.83,51,0,1.52,clear sky
10,Hithadhoo,MV,-0.6,73.0833,81.32,73,11,4.65,few clouds
11,Japura,ID,-0.3167,102.35,72.39,98,99,2.62,overcast clouds
12,Barrow,US,71.2906,-156.7887,36.79,90,92,20.04,overcast clouds
13,Sharlyk,RU,52.9167,54.75,58.48,94,99,10.27,overcast clouds
14,Sistranda,NO,63.7256,8.834,49.96,88,100,15.77,light rain
15,Norman Wells,CA,65.282,-126.8329,62.64,31,20,6.91,few clouds
16,Svetlogorsk,BY,52.6333,29.7333,47.61,93,83,5.91,broken clouds
17,Kapaa,US,22.0752,-159.319,84.18,70,82,4.0,broken clouds
18,Ribeira Grande,PT,38.5167,-28.7,74.61,91,100,6.78,overcast clouds
19,Kutum,SD,14.2,24.6667,72.88,67,13,5.23,few clouds
20,Derzhavinsk,KZ,51.1,66.3167,52.86,30,7,8.61,clear sky
21,Faya,SA,18.3851,42.4509,64.92,44,98,4.61,overcast clouds
22,Cap Malheureux,MU,-19.9842,57.6142,71.47,71,0,5.99,light rain
23,Rikitea,PF,-23.1203,-134.9692,72.41,77,0,20.36,clear sky
24,Tautira,PF,-17.7333,-149.15,76.35,81,54,20.22,light rain
25,Khatanga,RU,71.9667,102.5,24.48,90,20,3.24,few clouds
26,Vila,PT,42.0304,-8.1588,65.28,80,100,4.03,overcast clouds
27,Kodiak,US,57.79,-152.4072,57.06,62,70,2.08,broken clouds
28,Russell,US,32.3502,-85.1999,85.01,43,46,2.15,scattered clouds
29,Kilrush,IE,52.6397,-9.4833,47.95,77,4,0.94,clear sky
30,Albany,US,42.6001,-73.9662,71.89,69,41,3.69,scattered clouds
31,Hermanus,ZA,-34.4187,19.2345,52.81,73,100,5.01,overcast clouds
32,Avarua,CK,-21.2078,-159.775,78.85,73,0,17.27,clear sky
33,Haines Junction,CA,60.7522,-137.5108,57.15,41,81,2.3,broken clouds
34,Castro,BR,-24.7911,-50.0119,51.12,79,0,9.55,clear sky
35,Krasnoselkup,RU,65.7,82.4667,44.11,81,100,12.37,overcast clouds
36,East London,ZA,-33.0153,27.9116,64.24,86,100,3.11,overcast clouds
37,Butaritari,KI,3.0707,172.7902,82.9,67,96,9.24,overcast clouds
38,Mataura,NZ,-46.1927,168.8643,46.47,60,97,5.12,overcast clouds
39,Kiruna,SE,67.8557,20.2251,41.92,93,100,8.05,overcast clouds
40,Upernavik,GL,72.7868,-56.1549,36.39,72,88,20.78,overcast clouds
41,Hobart,AU,-42.8794,147.3294,49.05,83,75,9.22,moderate rain
42,Sarangani,PH,5.4033,125.4636,83.08,72,72,5.91,broken clouds
43,Otane,NZ,-39.8833,176.6333,56.01,65,1,1.81,clear sky
44,Punta Arenas,CL,-53.15,-70.9167,44.71,53,0,23.02,clear sky
45,Qaanaaq,GL,77.484,-69.3632,27.55,63,0,6.96,clear sky
46,Coihaique,CL,-45.5752,-72.0662,49.95,37,40,6.91,scattered clouds
47,Clyde River,CA,70.4692,-68.5914,34.03,93,100,13.8,fog
48,Lowestoft,GB,52.4752,1.7516,51.42,83,77,11.83,broken clouds
49,Vaini,TO,-21.2,-175.2,77.16,78,75,13.8,broken clouds
50,Esperance,AU,-33.8667,121.9,52.25,88,21,7.07,few clouds
51,Cabo San Lucas,MX,22.8909,-109.9124,92.17,77,12,9.91,few clouds
52,Kavieng,PG,-2.5744,150.7967,83.01,67,79,6.85,broken clouds
53,Olinda,BR,-8.0089,-34.8553,78.53,69,40,10.36,scattered clouds
54,Wad Madani,SD,14.4012,33.5199,79.36,67,100,13.13,overcast clouds
55,Puerto Ayora,EC,-0.7393,-90.3518,71.56,85,37,3.0,scattered clouds
56,Jamestown,US,42.097,-79.2353,78.03,51,20,9.22,few clouds
57,Codajas,BR,-3.8367,-62.0569,83.64,61,100,1.92,overcast clouds
58,Bethel,US,41.3712,-73.414,72.64,68,52,1.01,broken clouds
59,Saint-Philippe,RE,-21.3585,55.7679,69.39,83,38,12.93,light rain
60,Chumikan,RU,54.7183,135.315,49.91,81,100,20.94,overcast clouds
61,Bluff,NZ,-46.6,168.3333,46.8,68,100,8.95,overcast clouds
62,Juba,SS,4.8517,31.5825,70.16,87,43,2.35,scattered clouds
63,Ostrovnoy,RU,68.0531,39.5131,47.91,97,100,7.18,overcast clouds
64,Codrington,AU,-38.2667,141.9667,50.59,83,100,17.22,overcast clouds
65,Olafsvik,IS,64.8945,-23.7142,48.36,79,47,7.78,scattered clouds
66,Taua,BR,-5.9667,-40.3,86.92,31,60,10.65,broken clouds
67,Yurga,RU,55.7231,84.8861,39.72,82,0,4.79,clear sky
68,Torbay,CA,47.6666,-52.7314,56.26,86,75,17.27,light rain
69,Namibe,AO,-15.1961,12.1522,66.11,87,72,9.01,broken clouds
70,Kenai,US,60.5544,-151.2583,57.15,79,0,25.93,clear sky
71,Coruripe,BR,-10.1256,-36.1756,72.18,78,9,7.09,clear sky
72,Kasese,UG,0.1833,30.0833,67.59,91,63,3.22,broken clouds
73,Tasiilaq,GL,65.6145,-37.6368,35.15,95,100,16.44,light snow
74,Surgut,RU,61.25,73.4167,50.18,66,0,4.47,clear sky
75,Coquimbo,CL,-29.9533,-71.3436,58.12,70,19,5.17,few clouds
76,Bichura,RU,50.5881,107.6022,36.41,80,33,4.59,scattered clouds
77,Hilo,US,19.7297,-155.09,88.29,75,18,8.99,few clouds
78,Port Lincoln,AU,-34.7333,135.8667,55.22,71,100,16.06,overcast clouds
79,Kununurra,AU,-15.7667,128.7333,62.58,88,46,0.0,scattered clouds
80,Wadena,US,46.4425,-95.1361,77.04,57,75,3.44,broken clouds
81,Makakilo City,US,21.3469,-158.0858,85.57,52,64,6.78,broken clouds
82,Ibi,ES,38.6253,-0.5723,70.32,81,56,4.16,broken clouds
83,Trowbridge,GB,51.3189,-2.2086,55.18,88,27,4.45,scattered clouds
84,Egvekinot,RU,66.3167,-179.1667,36.12,89,100,12.82,overcast clouds
85,Fort Nelson,CA,58.8053,-122.7002,65.79,32,40,6.91,scattered clouds
86,Sambava,MG,-14.2667,50.1667,67.06,87,87,8.75,light rain
87,Leningradskiy,RU,69.3833,178.4167,33.28,100,100,18.39,snow
88,Shimoda,JP,34.6667,138.95,78.1,91,89,12.03,overcast clouds
89,Kotaj,HU,48.05,21.7167,51.21,92,100,14.58,moderate rain
90,Moose Factory,CA,51.2585,-80.6094,59.0,58,0,9.22,clear sky
91,Vestmannaeyjar,IS,63.4427,-20.2734,49.28,78,91,19.24,overcast clouds
92,Souillac,MU,-20.5167,57.5167,70.18,78,40,13.8,scattered clouds
93,Carnarvon,AU,-24.8667,113.6333,64.11,79,2,16.4,clear sky
94,Saint George,US,37.1041,-113.5841,90.63,18,0,20.71,clear sky
95,Port Elizabeth,ZA,-33.918,25.5701,60.1,88,40,9.22,scattered clouds
96,Hervey Bay,AU,-25.2986,152.8535,70.02,93,0,4.0,clear sky
97,Ahome,MX,25.9167,-109.1833,92.86,52,3,10.58,clear sky
98,Port Alfred,ZA,-33.5906,26.891,60.19,97,100,12.5,light rain
99,Nizwa,OM,22.9333,57.5333,85.68,34,3,2.75,clear sky
100,Hofn,IS,64.2539,-15.2082,45.64,81,98,6.64,overcast clouds
101,Severo-Kurilsk,RU,50.6789,156.125,51.55,75,12,4.94,few clouds
102,Sao Joao Da Barra,BR,-21.6403,-41.0511,65.59,74,72,11.63,broken clouds
103,Goundam,ML,16.4145,-3.6708,93.49,39,44,10.38,scattered clouds
104,Chicama,PE,-7.8447,-79.1469,68.76,73,30,10.09,scattered clouds
105,Atuona,PF,-9.8,-139.0333,77.07,74,8,19.66,clear sky
106,Bengkulu,ID,-3.8004,102.2655,74.08,90,54,3.89,broken clouds
107,Palmer,US,42.1584,-72.3287,68.9,65,12,3.0,few clouds
108,Longyearbyen,SJ,78.2186,15.6401,30.04,80,75,10.36,broken clouds
109,Tiksi,RU,71.6872,128.8694,33.44,92,95,9.26,overcast clouds
110,Nikolskoye,RU,59.7035,30.7861,51.69,91,98,11.14,light rain
111,Kiunga,PG,-6.1219,141.2906,73.58,98,85,3.6,overcast clouds
112,Baruun-Urt,MN,46.6806,113.2792,38.07,75,1,9.48,clear sky
113,Dingle,PH,10.9995,122.6711,75.61,91,100,6.33,overcast clouds
114,College,US,64.8569,-147.8028,53.47,65,100,3.0,overcast clouds
115,Suntar,RU,62.1444,117.6319,28.94,89,21,8.21,few clouds
116,Matamoros,MX,25.5333,-103.25,89.11,32,18,11.88,few clouds
117,Kintampo,GH,8.0563,-1.7306,71.44,90,66,4.27,broken clouds
118,Viedma,AR,-40.8135,-62.9967,48.92,84,100,21.16,overcast clouds
119,Mitu,CO,1.1983,-70.1733,75.58,94,100,2.44,overcast clouds
120,Kokkola,FI,63.8385,23.1307,50.04,96,40,5.75,scattered clouds
121,Riachao,BR,-7.3619,-46.6172,86.49,21,27,5.61,scattered clouds
122,Mareeba,AU,-17.0,145.4333,74.48,89,27,3.24,scattered clouds
123,Bathsheba,BB,13.2167,-59.5167,83.01,83,75,8.05,broken clouds
124,Tukrah,LY,32.5341,20.5791,76.48,62,0,2.44,clear sky
125,Lebu,CL,-37.6167,-73.65,46.81,66,93,12.03,overcast clouds
126,Porto Novo,BJ,6.4965,2.6036,76.53,88,100,6.67,overcast clouds
127,Neiafu,TO,-18.65,-173.9833,77.99,79,10,15.88,clear sky
128,Bogoslovka,RU,53.2084,44.8013,56.05,61,100,4.05,overcast clouds
129,Thompson,CA,55.7435,-97.8558,64.56,52,75,6.91,broken clouds
130,Biloela,AU,-24.4167,150.5,69.84,37,0,6.82,clear sky
131,San Jose,US,37.3394,-121.895,77.9,47,20,16.11,few clouds
132,Ambulu,ID,-8.345,113.6058,71.82,89,100,2.59,overcast clouds
133,Dikson,RU,73.5069,80.5464,31.59,78,23,12.71,few clouds
134,Narsaq,GL,60.9167,-46.05,61.02,87,100,4.05,overcast clouds
135,Malpe,IN,13.35,74.7167,78.1,91,16,2.17,few clouds
136,Mikhaylovka,RU,50.06,43.2379,58.69,59,99,6.06,overcast clouds
137,Nanortalik,GL,60.1432,-45.2371,46.42,79,87,8.28,overcast clouds
138,Morros,BR,-9.4467,-46.3003,88.9,18,44,5.14,scattered clouds
139,Mar Del Plata,AR,-38.0023,-57.5575,59.09,90,100,25.01,light rain
140,Vila Do Maio,CV,15.1333,-23.2167,79.92,75,79,10.85,broken clouds
141,Dekar,BW,-21.5333,21.9333,68.86,18,0,6.67,clear sky
142,Nhulunbuy,AU,-12.2333,136.7667,75.81,88,36,0.0,scattered clouds
143,Margate,GB,51.3813,1.3862,53.69,62,44,3.0,scattered clouds
144,Grootfontein,NA,-19.5667,18.1167,68.92,19,0,3.4,clear sky
145,Tuatapere,NZ,-46.1333,167.6833,53.01,61,73,6.04,broken clouds
146,Yarovoye,RU,52.9273,78.58,44.56,57,0,5.95,clear sky
147,Ponta Do Sol,PT,32.6667,-17.1,75.83,84,44,9.31,scattered clouds
148,Shenjiamen,CN,29.9576,122.298,75.67,88,18,18.32,few clouds
149,Sorland,NO,67.667,12.6934,49.86,74,99,29.06,overcast clouds
150,Mahebourg,MU,-20.4081,57.7,71.26,78,40,13.8,scattered clouds
151,Cap-Aux-Meules,CA,47.3821,-61.8597,60.19,59,20,23.49,few clouds
152,Acapulco,MX,16.8634,-99.8901,76.82,88,100,3.44,overcast clouds
153,Urengoy,RU,65.9667,78.3667,46.74,76,100,10.58,overcast clouds
154,Mehamn,NO,71.0357,27.8492,44.55,93,75,17.27,light intensity drizzle
155,Meulaboh,ID,4.1363,96.1285,75.27,86,99,3.51,light rain
156,Bredasdorp,ZA,-34.5322,20.0403,52.66,78,100,3.2,overcast clouds
157,New Norfolk,AU,-42.7826,147.0587,49.91,79,90,3.0,moderate rain
158,Kavaratti,IN,10.5669,72.642,80.4,79,100,11.59,overcast clouds
159,Ust-Uda,RU,54.1742,103.0304,37.92,84,50,3.31,scattered clouds
160,Kargasok,RU,59.0556,80.8572,49.08,77,100,5.59,overcast clouds
161,Abu Samrah,SY,35.3029,37.1841,77.04,40,0,7.07,clear sky
162,Uarini,BR,-2.99,-65.1083,81.12,77,97,2.48,overcast clouds
163,Katsuura,JP,35.1333,140.3,80.62,87,87,15.64,overcast clouds
164,Samarai,PG,-10.6167,150.6667,82.87,77,85,12.44,overcast clouds
165,Lorengau,PG,-2.0226,147.2712,82.96,71,99,5.41,overcast clouds
166,Nome,US,64.5011,-165.4064,46.17,94,100,36.22,light rain
167,Parabel,RU,58.6978,81.4825,45.86,80,99,5.61,overcast clouds
168,Kalianget,ID,-7.05,113.9333,79.74,74,74,6.62,broken clouds
169,Horqueta,PY,-23.3428,-57.0597,76.82,42,0,9.93,clear sky
170,Grand Gaube,MU,-20.0064,57.6608,71.38,71,1,5.99,light rain
171,Mahon,ES,39.8885,4.2658,68.56,52,0,8.05,clear sky
172,Inhambane,MZ,-23.865,35.3833,70.86,90,2,12.66,clear sky
173,Lasa,IT,46.6166,10.7002,43.7,91,42,6.53,scattered clouds
174,Kahului,US,20.8947,-156.47,85.96,52,28,9.06,scattered clouds
175,Sola,VU,-13.8833,167.55,80.91,75,9,19.71,clear sky
176,San Cristobal,VE,7.7669,-72.225,73.51,80,100,3.76,overcast clouds
177,Chuy,UY,-33.6971,-53.4616,58.59,76,80,13.56,broken clouds
178,Nouakchott,MR,18.0858,-15.9785,80.53,70,52,17.83,broken clouds
179,Grindavik,IS,63.8424,-22.4338,46.87,93,75,8.05,broken clouds
180,Karratha,AU,-20.7377,116.8463,69.66,45,0,7.56,clear sky
181,Cherskiy,RU,68.75,161.3,33.46,66,100,13.15,overcast clouds
182,Pisco,PE,-13.7,-76.2167,63.01,78,7,9.22,clear sky
183,Pokaran,IN,26.9167,71.9167,81.07,64,13,13.58,few clouds
184,Chokurdakh,RU,70.6333,147.9167,34.02,69,40,6.15,scattered clouds
185,Zelenoborsk,RU,61.4669,64.0333,50.43,62,100,9.75,overcast clouds
186,Abu Dhabi,AE,24.4667,54.3667,89.96,62,0,1.99,clear sky
187,Price,US,39.5994,-110.8107,76.12,63,75,6.91,broken clouds
188,Alice Springs,AU,-23.7,133.8833,57.22,26,0,0.0,clear sky
189,Hirara,JP,24.8,125.2833,79.07,89,75,14.97,broken clouds
190,Petrovskaya,RU,45.4314,37.955,69.8,62,39,6.6,scattered clouds
191,Obsharovka,RU,53.125,48.8531,54.79,76,100,3.56,overcast clouds
192,Tuktoyaktuk,CA,69.4541,-133.0374,47.5,71,95,10.63,overcast clouds
193,Arraial Do Cabo,BR,-22.9661,-42.0278,66.43,73,13,11.27,few clouds
194,Poum,NC,-20.2333,164.0167,75.49,68,0,12.1,clear sky
195,Ugoofaaru,MV,5.6667,73.0,81.0,76,21,8.5,few clouds
196,Tabou,CI,4.423,-7.3528,75.96,87,90,6.33,overcast clouds
197,Bilma,NE,18.6853,12.9164,89.4,36,71,0.78,broken clouds
198,Trairi,BR,-3.2778,-39.2689,77.95,80,29,12.21,scattered clouds
199,Zheleznodorozhnyy,RU,55.7503,38.0042,50.43,75,80,7.67,broken clouds
200,Gondanglegi,ID,-7.7479,112.0132,73.69,87,100,10.33,overcast clouds
201,Los Llanos De Aridane,ES,28.6585,-17.9182,71.35,90,0,4.61,clear sky
202,Angoche,MZ,-16.2325,39.9086,72.37,81,0,9.17,clear sky
203,San Patricio,US,28.017,-97.5169,91.49,54,31,13.69,scattered clouds
204,Hamilton,US,39.1834,-84.5333,84.65,54,1,1.99,clear sky
205,Victoria,HK,22.2855,114.1577,87.19,83,88,5.99,overcast clouds
206,Bandarbeyla,SO,9.4942,50.8122,77.9,78,95,20.47,overcast clouds
207,Mims,US,28.6653,-80.8448,79.09,92,100,0.0,mist
208,Lagoa,PT,39.05,-27.9833,73.63,91,89,9.55,overcast clouds
209,Turbat,PK,26.0023,63.044,81.37,75,0,6.2,clear sky
210,Saint-Pierre,RE,-21.3393,55.4781,69.48,73,0,14.97,clear sky
211,Mariental,NA,-24.6333,17.9667,71.31,30,77,7.31,broken clouds
212,Tual,ID,-5.6667,132.75,81.27,73,100,1.88,overcast clouds
213,Lafiagi,NG,8.8667,5.4167,75.02,91,100,0.83,overcast clouds
214,Lensk,RU,60.7253,114.9278,29.35,92,40,6.96,scattered clouds
215,Passy,FR,45.9203,6.6877,48.18,88,17,4.52,few clouds
216,Usinsk,RU,65.9939,57.5281,49.41,72,100,10.4,overcast clouds
217,Ghatampur,IN,26.1667,80.1667,77.34,87,100,3.98,overcast clouds
218,Bagdarin,RU,54.4333,113.6,31.77,81,33,5.06,scattered clouds
219,La Palma,US,33.8464,-118.0467,86.92,61,20,6.91,few clouds
220,The Valley,AI,18.217,-63.0578,78.1,83,100,29.59,overcast clouds
221,Port Blair,IN,11.6667,92.75,80.4,82,100,16.44,overcast clouds
222,Namatanai,PG,-3.6667,152.4333,82.65,66,42,3.29,scattered clouds
223,Moranbah,AU,-22.0016,148.0466,72.64,74,0,8.7,clear sky
224,Sitka,US,57.0531,-135.33,57.09,82,20,6.91,few clouds
225,Marsa Matruh,EG,31.3525,27.2453,73.89,62,0,3.04,clear sky
226,Luderitz,NA,-26.6481,15.1594,57.74,75,16,13.49,few clouds
227,Pevek,RU,69.7008,170.3133,33.55,97,100,19.26,overcast clouds
228,Bara,NG,10.3744,10.7288,70.92,91,100,5.55,overcast clouds
229,Arapongas,BR,-23.4194,-51.4244,63.27,55,0,11.25,clear sky
230,Port Hedland,AU,-20.3167,118.5667,62.65,67,0,5.75,clear sky
231,Kruisfontein,ZA,-34.0033,24.7314,56.88,89,100,5.59,overcast clouds
232,Yarensk,RU,62.1675,49.0916,49.12,93,100,6.4,overcast clouds
233,Sheridan,US,44.8333,-106.9173,72.46,40,0,4.61,clear sky
234,Aswan,EG,24.0934,32.907,82.49,25,0,9.08,clear sky
235,Luanda,AO,-8.8368,13.2343,71.55,88,31,7.78,scattered clouds
236,Lianyuan,CN,27.6883,111.6642,76.69,57,7,1.95,clear sky
237,Flinders,AU,-34.5833,150.8552,61.18,56,8,5.99,clear sky
238,Telimele,GN,10.9167,-13.3333,70.25,99,100,2.51,moderate rain
239,Bambous Virieux,MU,-20.3428,57.7575,71.22,78,40,13.8,light rain
240,Stornoway,GB,58.2093,-6.3865,51.04,85,100,9.22,overcast clouds
241,Maraa,BR,-1.8333,-65.3667,80.78,77,80,1.57,broken clouds
242,Alofi,NU,-19.0595,-169.9187,76.66,80,13,11.74,few clouds
243,Tahta,EG,26.7693,31.5021,79.57,31,0,4.79,clear sky
244,Bihariganj,IN,25.7333,86.9833,78.21,94,100,5.61,light rain
245,Nara,JP,34.6851,135.8049,80.96,61,100,12.71,overcast clouds
246,Paamiut,GL,61.994,-49.6678,46.63,94,100,5.75,overcast clouds
247,Klaksvik,FO,62.2266,-6.589,47.32,73,90,3.76,overcast clouds
248,Clonakilty,IE,51.6231,-8.8706,53.1,80,45,5.19,scattered clouds
249,Iqaluit,CA,63.7506,-68.5145,45.7,70,94,25.99,overcast clouds
250,Kalmunai,LK,7.4167,81.8167,79.25,77,100,1.57,overcast clouds
251,Leshukonskoye,RU,64.8989,45.7622,45.79,98,100,4.65,overcast clouds
252,Lavrentiya,RU,65.5833,-171.0,45.18,86,100,18.5,light rain
253,Sao Miguel Do Araguaia,BR,-13.275,-50.1628,95.13,20,45,6.76,scattered clouds
254,Yate,GB,51.5407,-2.4184,54.73,76,29,1.01,scattered clouds
255,Saldanha,ZA,-33.0117,17.9442,55.58,70,100,16.46,overcast clouds
256,Yellowknife,CA,62.456,-114.3525,58.35,42,99,5.59,overcast clouds
257,Iberia,US,29.9502,-91.7507,91.96,51,0,11.5,clear sky
258,Cockburn Town,TC,21.4612,-71.1419,85.96,70,40,16.11,scattered clouds
259,Weligama,LK,5.9667,80.4167,78.87,82,100,9.86,overcast clouds
260,Ancud,CL,-41.8697,-73.8203,45.23,63,29,3.58,scattered clouds
261,Kaitangata,NZ,-46.2817,169.8464,48.92,69,63,7.9,broken clouds
262,Inta,RU,66.0317,60.1659,45.28,77,40,7.94,scattered clouds
263,Jiangyou,CN,31.7667,104.7167,70.84,87,100,0.25,overcast clouds
264,Luganville,VU,-15.5333,167.1667,80.33,80,47,12.41,scattered clouds
265,Porto Nacional,BR,-10.7081,-48.4172,89.6,32,76,2.33,broken clouds
266,Barra Do Garcas,BR,-15.89,-52.2567,89.98,24,34,2.82,scattered clouds
267,Fare,PF,-16.7,-151.0167,78.12,69,0,17.56,clear sky
268,Madang,PG,-5.2246,145.7966,78.78,77,93,4.32,overcast clouds
269,Salalah,OM,17.0151,54.0924,80.69,94,75,3.44,broken clouds
270,Komsomolskiy,UZ,40.4272,71.7189,66.92,39,57,6.91,broken clouds
271,Raga,SS,8.4596,25.678,69.13,97,83,1.19,broken clouds
272,Vrsac,RS,45.1167,21.3036,51.62,100,100,10.36,light intensity shower rain
273,Merke,KZ,42.8728,73.1786,65.03,29,95,2.86,overcast clouds
274,Shatrovo,RU,56.5167,64.6333,56.03,54,100,12.77,light rain
275,Porto Santo,PT,33.072,-16.3415,73.78,88,40,11.5,scattered clouds
276,Isla Vista,US,34.4133,-119.861,79.83,65,40,5.75,scattered clouds
277,Cabedelo,BR,-6.9811,-34.8339,75.87,83,96,11.52,overcast clouds
278,Diffa,NE,13.3154,12.6113,80.44,66,98,7.4,overcast clouds
279,Traverse City,US,44.7631,-85.6206,82.51,53,75,10.36,broken clouds
280,Airai,TL,-8.9266,125.4092,58.82,68,81,1.77,broken clouds
281,Buala,SB,-8.145,159.5921,83.46,72,60,4.21,broken clouds
282,Haimen,CN,23.1935,116.6142,77.05,87,97,4.47,overcast clouds
283,Burlington,US,39.8835,-74.6413,80.46,68,75,4.61,broken clouds
284,Miri,MY,4.4148,114.0089,76.62,89,100,4.68,moderate rain
285,Faanui,PF,-16.4833,-151.75,78.22,67,4,19.01,clear sky
286,Aklavik,CA,68.2191,-135.0107,58.23,55,55,10.96,broken clouds
287,Mount Pleasant,US,32.7941,-79.8626,83.3,68,0,9.22,clear sky
288,Nizhniy Kuranakh,RU,58.8353,125.4869,38.25,97,100,7.38,light rain
289,Cayenne,GF,4.9333,-52.3333,82.44,78,0,6.91,clear sky
290,Caravelas,BR,-17.7125,-39.2481,67.37,82,100,14.18,overcast clouds
291,Provideniya,RU,64.3833,-173.3,45.01,91,100,11.68,light rain
292,Axim,GH,4.8699,-2.2405,74.79,92,97,6.29,overcast clouds
293,Byron Bay,AU,-28.65,153.6167,66.7,48,78,8.08,broken clouds
294,Rudbar,AF,30.15,62.6,77.5,22,0,8.86,clear sky
295,Florianopolis,BR,-27.6146,-48.5012,58.62,78,20,6.91,few clouds
296,Jalu,LY,29.0331,21.5482,80.92,23,0,6.67,clear sky
297,Pudozh,RU,61.8099,36.5345,48.88,96,100,6.87,overcast clouds
298,Fayaoue,NC,-20.65,166.5333,75.13,72,0,12.62,clear sky
299,Cidreira,BR,-30.1811,-50.2056,61.59,76,3,18.79,clear sky
300,Luwuk,ID,-0.9516,122.7875,76.08,81,100,3.74,overcast clouds
301,Tombouctou,ML,20.0,-3.0,96.71,15,9,8.14,clear sky
302,Teacapan,MX,22.55,-105.75,87.35,72,70,10.18,broken clouds
303,Ahipara,NZ,-35.1667,173.1667,59.04,62,46,8.95,scattered clouds
304,Hun,LY,29.1268,15.9477,83.75,15,0,5.01,clear sky
305,Buchanan,LR,5.8808,-10.0467,75.99,87,100,9.35,light rain
306,Ahuimanu,US,21.4447,-157.8378,85.71,64,20,6.91,few clouds
307,Mimongo,GA,-1.6195,11.6068,70.27,95,100,4.29,overcast clouds
308,Virginia Beach,US,36.8529,-75.978,80.02,65,0,8.05,clear sky
309,Okhotsk,RU,59.3833,143.3,48.02,55,78,1.28,broken clouds
310,Lodja,CD,-3.4833,23.4333,70.3,98,100,0.92,light rain
311,Sinnamary,GF,5.3833,-52.95,80.64,82,9,12.35,clear sky
312,Maltahohe,NA,-24.8333,16.9833,64.71,35,8,11.54,clear sky
313,Joshimath,IN,30.5667,79.5667,62.31,83,61,4.36,broken clouds
314,Salinopolis,BR,-0.6136,-47.3561,79.72,77,85,12.55,overcast clouds
315,Minggang,CN,32.4586,114.0486,71.55,60,59,3.89,broken clouds
316,Griffith,US,41.5284,-87.4237,84.27,54,40,17.27,scattered clouds
317,Veraval,IN,20.9,70.3667,80.15,70,100,7.76,overcast clouds
318,Tolaga Bay,NZ,-38.3667,178.3,57.27,61,35,3.8,scattered clouds
319,Mongo,TD,12.1844,18.693,72.39,89,83,5.48,light rain
320,Mezen,RU,65.8522,44.24,48.78,98,100,5.03,light rain
321,Opuwo,NA,-18.0607,13.84,67.89,55,1,5.64,clear sky
322,Outram,MY,1.2829,103.8379,78.82,92,75,2.3,broken clouds
323,La Ronge,CA,55.1001,-105.2842,60.89,47,100,2.24,overcast clouds
324,Bubaque,GW,11.2833,-15.8333,80.76,80,94,10.94,overcast clouds
325,Nabire,ID,-3.3667,135.4833,73.92,90,84,2.24,broken clouds
326,Ketchikan,US,55.3422,-131.6461,63.07,55,0,11.5,clear sky
327,Nanakuli,US,21.3906,-158.1547,85.95,51,0,10.36,clear sky
328,San Marcos,US,33.1434,-117.1661,85.23,65,20,10.36,few clouds
329,Seoul,KR,37.5683,126.9778,72.79,84,86,2.77,overcast clouds
330,Unidad,PH,8.535,126.2306,74.79,97,99,3.0,overcast clouds
331,Shibetsu,JP,43.659,145.132,68.58,97,97,9.89,overcast clouds
332,Ayabaca,PE,-4.6398,-79.7149,57.52,63,83,5.03,light rain
333,Kopong,BW,-24.4833,25.8833,68.77,19,0,3.13,clear sky
334,Qinhuangdao,CN,39.9317,119.5883,67.12,36,0,10.36,clear sky
335,Tecoanapa,MX,16.5167,-98.75,77.05,91,100,8.19,overcast clouds
336,Lompoc,US,34.6391,-120.4579,79.02,61,0,14.97,clear sky
337,Dudinka,RU,69.4058,86.1778,36.63,99,100,13.71,light rain
338,Beloha,MG,-25.1667,45.05,68.0,63,9,6.89,clear sky
339,Karasuk,RU,53.7377,78.0403,45.45,55,4,6.17,clear sky
340,Tripoli,LY,32.8752,13.1875,81.03,69,1,15.93,clear sky
341,Alugan,PH,12.2188,125.4808,78.73,85,100,5.32,overcast clouds
342,Tailai,CN,46.3833,123.4,51.42,53,2,12.71,clear sky
343,Terrace Bay,CA,48.7834,-87.1,58.35,99,100,5.21,overcast clouds
344,Biak,ID,-0.9131,122.8766,75.09,81,100,4.5,overcast clouds
345,Maykor,RU,59.0059,55.88,54.68,91,100,12.5,overcast clouds
346,Ascension,US,30.2169,-90.9001,92.01,61,0,11.5,clear sky
347,Okaihau,NZ,-35.3167,173.7833,56.64,54,7,4.9,clear sky
348,Aitape,PG,-3.1374,142.3475,79.63,78,55,4.07,broken clouds
349,Ilulissat,GL,69.2167,-51.1,40.28,95,100,2.24,light rain
350,Syracuse,IT,37.0881,15.2792,76.37,71,11,4.88,few clouds
351,Iquique,CL,-20.2208,-70.1431,60.84,75,22,6.17,few clouds
352,Guerrero Negro,MX,27.9769,-114.0611,74.3,63,0,17.16,clear sky
353,Villa Carlos Paz,AR,-31.4241,-64.4978,78.39,20,91,13.0,overcast clouds
354,Albion,US,42.2431,-84.753,82.35,56,40,4.61,scattered clouds
355,Kaduqli,SD,11.0167,29.7167,71.42,85,81,2.24,broken clouds
356,Floro,NO,61.5996,5.0328,48.16,81,75,12.66,light rain
357,Rio Gallegos,AR,-51.6226,-69.2181,46.45,39,0,21.85,clear sky
358,Teguldet,RU,57.3064,88.1667,44.92,88,91,3.62,overcast clouds
359,Fortuna,US,40.5982,-124.1573,66.92,75,100,3.0,overcast clouds
360,Asyut,EG,27.181,31.1837,78.62,33,0,4.16,clear sky
361,Esmeraldas,BR,-19.7625,-44.3139,61.66,83,65,8.12,broken clouds
362,Anloga,GH,5.7947,0.8973,76.98,88,100,12.59,overcast clouds
363,Prince Rupert,CA,54.3161,-130.3201,58.55,64,0,6.49,clear sky
364,Ust-Kishert,RU,57.3654,57.2495,59.68,96,100,14.88,overcast clouds
365,Comodoro Rivadavia,AR,-45.8667,-67.5,49.86,32,0,1.14,clear sky
366,Whitianga,NZ,-36.8333,175.7,57.49,58,2,2.48,clear sky
367,Middelburg,ZA,-25.7751,29.4648,64.26,28,0,8.3,clear sky
368,Havre-Saint-Pierre,CA,50.2334,-63.5986,55.18,59,41,12.5,scattered clouds
369,Rocky Mountain House,CA,52.3668,-114.9188,60.37,39,55,4.81,broken clouds
370,Flin Flon,CA,54.7682,-101.865,53.44,82,100,4.61,overcast clouds
371,Sorong,ID,-0.8833,131.25,76.93,87,100,4.25,overcast clouds
372,Kumylzhenskaya,RU,49.8809,42.5898,60.71,60,84,6.55,broken clouds
373,Hobyo,SO,5.3505,48.5268,75.9,84,36,23.0,scattered clouds
374,Kapit,MY,2.0167,112.9333,72.88,99,99,1.01,overcast clouds
375,Xuanhua,CN,40.6103,115.0447,58.95,34,0,4.94,clear sky
376,Ratnagiri,IN,16.9833,73.3,77.0,85,74,1.16,broken clouds
377,Vangaindrano,MG,-23.35,47.6,66.94,90,66,3.0,light rain
378,Sumenep,ID,-7.0167,113.8667,78.66,76,71,6.31,broken clouds
379,Concepcion,CL,-36.827,-73.0498,49.8,71,75,12.66,broken clouds
380,Belaya Gora,RU,68.5333,146.4167,37.85,57,98,4.29,overcast clouds
381,Amot,NO,59.5714,7.9877,45.77,84,99,6.13,light rain
382,Houma,US,29.5958,-90.7195,84.0,88,75,8.05,broken clouds
383,Husavik,IS,66.0449,-17.3389,44.24,74,72,5.73,broken clouds
384,Goderich,CA,43.7501,-81.7165,80.91,56,37,14.12,scattered clouds
385,Ipixuna,BR,-1.7625,-48.8043,80.78,75,94,8.3,overcast clouds
386,Butembo,CD,0.15,29.2833,57.61,96,85,2.1,overcast clouds
387,Fairbanks,US,64.8378,-147.7164,54.48,68,100,4.63,overcast clouds
388,Laharpur,IN,27.7167,80.9,74.44,93,94,4.29,overcast clouds
389,Arrecife,ES,28.963,-13.5477,75.18,78,20,11.5,few clouds
390,Brasilia De Minas,BR,-16.2064,-44.4333,82.31,34,92,9.8,overcast clouds
391,Marystown,CA,47.1666,-55.1483,54.77,65,99,21.0,overcast clouds
392,Abagur,RU,53.7308,87.2526,36.23,68,0,3.29,clear sky
393,Lazaro Cardenas,MX,17.9583,-102.2,76.55,92,100,2.8,overcast clouds
394,Nabinagar,BD,23.8917,90.9733,77.07,95,65,4.63,broken clouds
395,Pouembout,NC,-21.1333,164.9,76.78,60,0,3.85,clear sky
396,Alibag,IN,18.6411,72.8792,77.07,84,82,4.16,broken clouds
397,Yozgat,TR,39.5833,35.3333,70.36,25,0,3.18,clear sky
398,Ulladulla,AU,-35.35,150.4667,59.9,55,5,10.94,clear sky
399,Puerto Del Rosario,ES,28.5004,-13.8627,76.75,69,40,13.8,scattered clouds
400,Ibipeba,BR,-11.6408,-42.0111,79.74,30,7,11.52,clear sky
401,Leninogorsk,RU,54.6026,52.4609,56.95,97,100,4.18,overcast clouds
402,Vao,NC,-22.6667,167.4833,72.34,71,77,14.92,broken clouds
403,Shurugwi,ZW,-19.6702,30.0059,61.38,25,0,3.65,clear sky
404,Talmenka,RU,53.8183,83.5677,39.38,71,0,6.29,clear sky
405,Prado,BR,-17.3411,-39.2208,68.65,83,100,14.79,overcast clouds
406,Minab,IR,27.1467,57.0801,86.58,64,12,2.3,few clouds
407,Asau,RO,46.4333,26.4,54.52,97,100,1.54,overcast clouds
408,Asahikawa,JP,43.7678,142.3703,67.77,86,69,1.21,broken clouds
409,Ambon,ID,-3.6954,128.1814,76.23,16,20,6.91,few clouds
410,Yerbogachen,RU,61.2767,108.0108,28.44,77,1,4.12,clear sky
411,Belyy Yar,RU,53.6039,91.3903,36.86,78,0,0.0,clear sky
412,Nemuro,JP,43.3236,145.575,66.87,96,82,16.55,broken clouds
413,Nola,IT,40.922,14.5329,71.92,62,58,8.52,broken clouds
414,Maragogi,BR,-9.0122,-35.2225,74.03,79,13,7.09,few clouds
415,Polyarnyy,RU,69.1989,33.4478,46.8,97,100,18.59,overcast clouds
416,Berdigestyakh,RU,62.0989,126.6992,33.69,93,100,8.95,overcast clouds
417,Noumea,NC,-22.2763,166.4572,76.98,99,6,2.28,clear sky
418,Tilichiki,RU,60.4667,166.1,42.51,61,61,14.36,broken clouds
419,Rochefort,FR,45.9167,-1.0,55.85,64,14,3.0,few clouds
420,Turukhansk,RU,65.8167,87.9833,44.6,96,100,12.17,overcast clouds
421,Vanimo,PG,-2.6741,141.3028,78.26,84,70,5.32,broken clouds
422,Anadyr,RU,64.75,177.4833,45.1,75,20,17.9,few clouds
423,Rio Pardo,BR,-29.9897,-52.3781,62.76,65,25,10.85,scattered clouds
424,Batagay-Alyta,RU,67.8006,130.4114,27.12,59,19,3.78,few clouds
425,Ponta Delgada,PT,37.7333,-25.6667,72.32,73,20,5.75,few clouds
426,Sao Filipe,CV,14.8961,-24.4956,78.1,82,20,7.31,few clouds
427,Nouadhibou,MR,20.931,-17.0347,74.03,79,0,27.09,clear sky
428,Lisakovsk,KZ,52.5369,62.4936,60.37,29,99,9.89,overcast clouds
429,Tikrit,IQ,34.6071,43.6782,88.02,14,0,11.01,clear sky
430,Kushiro,JP,42.975,144.3747,67.41,98,96,8.88,overcast clouds
431,Naryan-Mar,RU,67.6713,53.087,46.78,89,97,8.14,overcast clouds
432,Olinala,MX,17.8333,-98.85,66.27,94,100,4.23,overcast clouds
433,Kurilsk,RU,45.2333,147.8833,63.41,95,100,7.05,overcast clouds
434,High Level,CA,58.5169,-117.136,50.11,100,75,12.66,broken clouds
435,Katangli,RU,51.7102,143.2326,50.92,78,100,16.17,light rain
436,Yugorsk,RU,61.3133,63.3319,51.28,62,100,10.29,overcast clouds
437,Batabano,CU,22.7164,-82.2881,74.01,72,43,8.55,scattered clouds
438,Ginda,IN,30.6945,78.4932,61.27,77,85,4.41,overcast clouds
439,Ormond Beach,US,29.2858,-81.0559,82.29,84,75,9.22,broken clouds
440,Huarmey,PE,-10.0681,-78.1522,66.51,78,25,12.48,scattered clouds
441,Tura,IN,25.5198,90.2201,73.92,88,31,3.4,scattered clouds
442,Murray Bridge,AU,-35.1167,139.2667,55.13,74,34,14.12,scattered clouds
443,Borborema,BR,-21.6197,-49.0736,71.56,30,0,12.91,clear sky
444,Coahuayana,MX,18.7333,-103.6833,77.31,94,100,2.33,overcast clouds
445,Banjar,ID,-8.19,114.9675,74.5,82,99,3.02,overcast clouds
446,Kashi,CN,39.4547,75.9797,70.48,32,100,4.9,overcast clouds
447,Honiara,SB,-9.4333,159.95,83.32,73,65,6.64,broken clouds
448,Tomatlan,MX,19.9333,-105.25,80.71,88,97,3.58,overcast clouds
449,Umba,RU,66.6871,34.3429,49.78,94,100,9.69,light rain
450,Hovd,MN,48.0056,91.6419,40.78,66,25,2.86,scattered clouds
451,Whitehorse,CA,60.7161,-135.0538,58.1,46,19,5.99,few clouds
452,Loreto,MX,22.2667,-101.9667,73.13,47,100,17.94,overcast clouds
453,Palau,PW,7.503,134.621,82.76,62,96,1.39,overcast clouds
454,Dunedin,NZ,-45.8742,170.5036,50.81,76,81,5.01,broken clouds
455,Cururupu,BR,-1.8283,-44.8683,75.92,86,33,3.89,scattered clouds
456,Kirakira,SB,-10.4544,161.9205,82.65,79,81,12.33,broken clouds
457,Vikramasingapuram,IN,8.714,77.3893,76.87,85,100,6.15,overcast clouds
458,Marovoay,MG,-16.1,46.6333,70.12,50,0,5.68,clear sky
459,Vostok,RU,46.4856,135.8833,55.56,97,100,2.21,overcast clouds
460,Praia,CV,14.9215,-23.5087,79.34,83,20,11.5,few clouds
461,Dubrovnik,HR,42.6481,18.0922,65.84,68,75,11.5,broken clouds
462,Talnakh,RU,69.4865,88.3972,36.21,98,100,12.06,moderate rain
463,Excelsior Springs,US,39.3392,-94.2261,92.1,45,0,10.36,clear sky
464,Tiarei,PF,-17.5333,-149.3333,82.42,80,38,20.33,light rain
465,Erenhot,CN,43.6475,111.9767,51.21,43,0,7.74,clear sky
466,Srednekolymsk,RU,67.45,153.6833,38.14,62,99,3.67,overcast clouds
467,Denpasar,ID,-8.65,115.2167,74.86,94,75,1.14,broken clouds
468,Mao,ES,39.8885,4.2658,68.56,52,0,8.05,clear sky
469,Cayhagan,PH,9.6697,122.4256,79.75,82,76,5.37,broken clouds
470,Capelinha,BR,-17.6914,-42.5158,59.13,89,81,8.61,broken clouds
471,Kahta,TR,37.7855,38.6237,81.77,21,0,3.42,clear sky
472,Filingue,NE,14.3521,3.3168,86.4,53,34,9.01,scattered clouds
473,Sur,OM,22.5667,59.5289,86.2,57,80,4.29,broken clouds
474,Kieta,PG,-6.2167,155.6333,83.64,70,88,4.36,light rain
475,Parit Buntar,MY,5.1267,100.4932,78.78,91,80,4.54,broken clouds
476,Guarapari,BR,-20.6667,-40.4975,63.9,86,92,7.74,overcast clouds
477,Todos Santos,MX,23.45,-110.2167,79.66,86,31,5.17,scattered clouds
478,Amahai,ID,-3.3333,128.9167,76.73,83,100,3.29,overcast clouds
479,Ko Samui,TH,9.5357,99.9357,81.72,76,100,14.63,overcast clouds
480,Terrak,NO,65.087,12.3715,51.67,89,92,1.92,overcast clouds
481,Gravdal,NO,68.1214,13.5031,49.24,77,98,26.02,overcast clouds
482,Westport,US,41.1415,-73.3579,72.12,70,0,5.75,clear sky
483,Sao Sebastiao,BR,-23.76,-45.4097,63.75,82,54,4.09,broken clouds
484,Piracaia,BR,-23.0539,-46.3581,54.64,77,0,10.58,clear sky
485,Khowst,AF,33.3833,69.8833,71.89,65,0,2.3,clear sky
486,Oranjestad,AW,12.524,-70.027,84.49,76,94,12.68,overcast clouds
487,Aripuana,BR,-9.1667,-60.6333,88.38,41,77,2.24,broken clouds
488,Kirksville,US,40.1948,-92.5833,75.15,73,0,10.36,clear sky
489,Taoudenni,ML,22.6783,-3.9836,94.42,16,2,11.5,clear sky
490,Yongan,CN,39.6957,113.6871,58.84,42,9,2.62,clear sky
491,Shintomi,JP,32.0785,131.4723,79.32,91,100,33.22,light rain
492,Winburg,ZA,-28.518,27.0093,61.56,33,41,5.93,scattered clouds
493,Broome,US,42.2506,-75.833,77.85,62,0,8.05,clear sky
494,Maloy,NO,61.9353,5.1136,47.93,82,100,24.32,overcast clouds
495,Northam,GB,51.0333,-4.2167,54.61,73,31,8.03,scattered clouds
496,Teluk Nibung,ID,3.001,99.8164,73.94,97,100,4.54,overcast clouds
497,Polunochnoye,RU,60.8697,60.4153,47.26,93,100,9.73,light rain
498,Otjimbingwe,NA,-22.35,16.1333,67.5,53,0,4.56,clear sky
499,Kloulklubed,PW,7.0419,134.2556,83.89,64,90,4.05,overcast clouds
500,La Orilla,MX,17.9833,-102.2333,76.37,92,100,2.39,overcast clouds
501,Mokobeng,BW,-22.9965,27.6678,72.12,19,0,4.97,clear sky
502,Tezu,IN,27.9167,96.1667,74.21,95,95,3.15,overcast clouds
503,Saint Paul,US,44.9444,-93.0933,84.61,58,0,12.66,clear sky
504,Rongcheng,CN,30.634,117.8517,68.31,94,11,2.15,few clouds
505,Kijang,KR,35.2442,129.2139,74.59,88,100,12.97,overcast clouds
506,Melfi,IT,40.9965,15.6514,55.49,63,80,11.48,broken clouds
507,Aykhal,RU,66.0,111.5,24.62,90,99,26.08,overcast clouds
508,Chuzhou,CN,32.3219,118.2978,68.05,97,1,5.19,clear sky
509,Khandyga,RU,62.6667,135.6,39.88,78,100,4.92,overcast clouds
510,Kemijarvi,FI,66.7131,27.4306,47.84,97,100,8.88,light rain
511,Dangriga,BZ,16.9692,-88.2321,82.38,83,100,12.26,overcast clouds
512,Loei,TH,17.4167,101.5,64.42,94,100,1.34,overcast clouds
513,Killam,CA,52.7834,-111.8518,64.35,36,15,14.97,few clouds
514,Maceio,BR,-9.6658,-35.7353,72.84,88,40,6.91,scattered clouds
515,Beyneu,KZ,45.3167,55.2,70.79,30,22,10.98,few clouds
516,Altamira,BR,-3.2033,-52.2064,84.15,51,100,1.99,overcast clouds
517,Vardo,NO,70.3705,31.1107,44.58,93,100,19.57,overcast clouds
518,San Quintin,MX,30.4833,-115.95,72.3,66,0,15.19,clear sky
519,Baghdad,IQ,33.3406,44.4009,82.31,26,0,5.75,clear sky
520,Riachao Das Neves,BR,-11.7461,-44.91,85.53,22,23,4.88,few clouds
521,Boma,GH,7.0805,-2.1697,70.68,97,46,1.97,scattered clouds
522,Kotri,PK,25.366,68.3122,80.01,72,5,12.59,clear sky
523,Gushikawa,JP,26.3544,127.8686,81.63,88,100,21.85,mist
524,Bahia Honda,CU,22.9036,-83.1592,84.31,73,96,10.31,overcast clouds
525,Plettenberg Bay,ZA,-34.0527,23.3716,56.59,87,100,4.25,light rain
526,Calabozo,VE,8.9242,-67.4293,80.65,81,88,5.82,overcast clouds
527,Brigantine,US,39.4101,-74.3646,76.03,66,0,9.22,clear sky
528,Itainopolis,BR,-7.4469,-41.4783,85.19,18,7,5.68,clear sky
529,Binga,ZW,-17.6203,27.3414,70.68,42,4,2.26,clear sky
530,Pochutla,MX,15.7432,-96.4661,75.02,94,100,1.7,overcast clouds
531,Torres,BR,-29.3353,-49.7269,60.82,80,17,9.93,few clouds
532,Maumere,ID,-8.6199,122.2111,77.5,81,100,1.54,overcast clouds
533,Cabo Rojo,PR,18.0866,-67.1457,84.97,77,98,4.0,overcast clouds
534,Saskylakh,RU,71.9167,114.0833,32.65,96,100,13.69,overcast clouds
535,Ballina,AU,-28.8667,153.5667,66.78,59,77,9.42,broken clouds
536,Cahabon,GT,15.5667,-89.8167,76.01,93,99,1.61,overcast clouds
537,Key West,US,24.5557,-81.7826,80.6,91,40,5.75,moderate rain
538,Dom Pedrito,BR,-30.9828,-54.6731,60.24,69,53,7.76,broken clouds
539,Ondjiva,AO,-17.0667,15.7333,68.63,20,0,6.87,clear sky
540,Maraba,BR,-5.3686,-49.1178,87.98,58,40,3.44,scattered clouds
541,Sinjar,IQ,36.3209,41.8754,86.34,13,0,5.61,clear sky
542,Itoman,JP,26.1247,127.6694,82.42,86,75,32.21,broken clouds
543,Tianpeng,CN,30.9866,103.9393,69.85,89,100,1.57,overcast clouds
544,Hastings,GB,50.8552,0.5729,53.78,61,23,7.14,few clouds
545,Katima Mulilo,NA,-17.5,24.2667,67.51,34,0,5.21,clear sky
546,Vincennes,FR,48.85,2.4333,52.93,67,0,5.75,clear sky
547,Belmonte,BR,-15.8631,-38.8828,72.46,81,54,16.84,broken clouds
548,Sao Cristovao,BR,-11.0147,-37.2064,76.91,73,20,9.22,few clouds
549,Gisborne,NZ,-38.6533,178.0042,57.27,61,40,1.74,scattered clouds
550,Naze,JP,28.3667,129.4833,77.92,91,100,38.27,moderate rain
551,Devils Lake,US,48.1128,-98.8651,60.91,72,100,6.91,overcast clouds
552,Lac Du Bonnet,CA,50.2536,-96.0612,60.94,90,100,3.29,overcast clouds
553,Hammerfest,NO,70.6634,23.6821,45.05,100,75,19.57,light rain
554,Vila Velha,BR,-20.3297,-40.2925,66.15,78,75,11.5,broken clouds
555,Mount Isa,AU,-20.7333,139.5,71.37,26,25,12.66,scattered clouds
556,Port Hardy,CA,50.6996,-127.4199,60.98,59,20,11.5,few clouds
557,Saraikela,IN,22.7167,85.95,75.87,92,94,3.91,overcast clouds
558,Shymkent,KZ,42.3,69.6,64.99,30,0,2.24,clear sky
559,Marzuq,YE,14.4,46.4667,82.18,36,62,3.33,broken clouds
560,Tucupita,VE,9.0622,-62.051,74.8,96,99,2.77,overcast clouds
561,Tiznit,MA,29.5833,-9.5,64.67,81,67,3.91,broken clouds
562,Voyskovitsy,RU,59.5287,29.964,50.83,94,98,11.12,overcast clouds
563,Camacha,PT,33.0833,-16.3333,71.02,88,40,9.22,scattered clouds
564,Yatou,CN,37.15,122.3833,66.47,89,1,7.58,clear sky
565,Panalingaan,PH,8.7842,117.4231,78.08,88,98,5.93,overcast clouds
566,Sibolga,ID,1.7427,98.7792,73.98,94,100,1.79,overcast clouds
567,Roblin,CA,51.23,-101.3565,59.07,73,98,4.5,overcast clouds
568,Pacific Grove,US,36.6177,-121.9166,75.38,77,40,12.66,scattered clouds
569,Oranjemund,NA,-28.55,16.4333,54.54,93,86,10.76,overcast clouds
570,Voznesenye,RU,61.0106,35.4781,50.61,89,96,9.1,overcast clouds
571,Bom Despacho,BR,-19.7364,-45.2522,65.97,68,80,11.59,broken clouds
572,Conceicao Da Barra,BR,-18.5933,-39.7322,65.53,82,100,11.32,overcast clouds
573,Bandrele,YT,-12.9067,45.1914,74.95,83,0,9.22,clear sky
574,Kimbe,PG,-5.5502,150.1429,80.91,75,91,3.22,overcast clouds
575,Adet,ET,11.2644,37.4888,54.19,88,80,3.69,broken clouds
576,Zhigansk,RU,66.7697,123.3711,31.37,93,100,11.21,light snow
577,Zhezkazgan,KZ,47.8043,67.7144,52.92,29,1,8.55,clear sky
578,Bhag,PK,29.0415,67.8239,87.73,44,0,9.62,clear sky
579,Mankera,PK,31.3866,71.4407,86.09,54,0,12.21,clear sky
580,Brindisi,IT,40.5833,17.6667,68.36,60,64,20.07,broken clouds
581,Mitsamiouli,KM,-11.3847,43.2844,75.76,69,50,3.6,scattered clouds
582,Roma,US,43.2128,-75.4557,75.72,71,0,5.75,clear sky
583,Ndele,CF,8.4109,20.6473,69.15,99,100,4.05,light rain
584,Baculin,PH,7.4525,126.5842,78.71,84,97,8.34,overcast clouds
585,Santa Clara,CU,22.4,-79.9667,87.46,58,20,13.8,few clouds
586,Kulhudhuffushi,MV,6.6221,73.07,79.95,80,48,8.52,scattered clouds
587,Touros,BR,-5.1989,-35.4608,77.04,77,27,12.71,scattered clouds
588,Morgan City,US,29.6994,-91.2068,84.0,65,28,9.42,scattered clouds
589,Manthani,IN,18.65,79.6667,74.64,93,99,3.36,overcast clouds
590,Karatau,KZ,43.1667,70.4667,60.04,29,96,2.62,overcast clouds
591,Luau,AO,-10.7073,22.2247,75.09,43,73,2.37,broken clouds
592,Kota Tinggi,MY,1.7381,103.8999,78.84,95,88,1.41,overcast clouds
593,Semnan,IR,35.5729,53.3971,73.24,21,0,2.3,clear sky
594,Thinadhoo,MV,0.5333,72.9333,81.59,68,6,5.23,clear sky
595,Fort Stewart,US,31.8722,-81.61,86.02,53,36,8.46,scattered clouds
596,Anapskaya,RU,44.89,37.38,71.83,53,0,8.95,clear sky
597,Bac Lieu,VN,9.285,105.7244,78.1,89,100,7.87,overcast clouds
598,Port-Gentil,GA,-0.7193,8.7815,78.76,78,100,11.5,overcast clouds
599,Phalaborwa,ZA,-23.943,31.1411,73.4,21,0,4.43,clear sky
600,Calderitas,MX,18.55,-88.25,87.91,70,75,16.11,broken clouds
601,Charters Towers,AU,-20.1,146.2667,72.54,75,30,6.69,scattered clouds
602,Adrar,MR,20.5022,-10.0711,87.35,22,0,10.83,clear sky
603,Vanavara,RU,60.34,102.2797,30.04,89,24,1.45,few clouds
604,Muisne,EC,0.6,-80.0333,76.05,81,99,8.66,overcast clouds
605,Dwarka,IN,22.2394,68.9678,80.22,78,100,12.03,overcast clouds
606,Cacapava Do Sul,BR,-30.5122,-53.4914,55.13,72,33,5.73,scattered clouds
607,Isangel,VU,-19.55,169.2667,80.71,74,20,9.22,few clouds
608,Korla,CN,41.7597,86.1469,68.63,21,97,12.44,overcast clouds
609,Emet,TR,39.343,29.2585,69.26,31,0,5.64,clear sky
610,Lichuan,CN,30.3,108.85,61.95,93,55,2.17,broken clouds
611,Eureka,US,40.8021,-124.1637,69.75,80,100,8.99,overcast clouds
612,Mazyr,BY,52.0495,29.2456,48.7,93,82,4.61,broken clouds
613,Mecca,SA,21.4267,39.8261,85.5,40,85,1.59,overcast clouds
614,Leh,IN,34.1667,77.5833,51.69,43,9,5.91,clear sky
615,Kayes,ML,14.0,-11.0,78.62,79,51,4.92,light rain
616,Praia Da Vitoria,PT,38.7333,-27.0667,75.45,94,75,7.0,broken clouds
617,Bantry,IE,51.6833,-9.45,49.8,85,49,2.91,scattered clouds
618,Vallenar,CL,-28.5708,-70.7581,61.88,49,0,7.02,clear sky
619,Richards Bay,ZA,-28.783,32.0377,66.04,86,61,4.38,broken clouds
620,Geraldton,AU,-28.7667,114.6,46.81,93,1,5.75,clear sky
621,Yar-Sale,RU,66.8333,70.8333,47.21,75,99,9.64,overcast clouds
622,Mogadouro,PT,41.3403,-6.7119,69.26,35,100,6.04,overcast clouds
623,Boddam,GB,57.4667,-1.7833,51.49,78,100,18.84,light rain
624,Tamandare,BR,-8.7597,-35.1047,74.28,80,16,6.58,few clouds
625,Lianran,CN,24.9227,102.485,61.34,97,11,1.34,few clouds
626,Harwich,GB,51.9419,1.2844,52.52,69,76,4.0,broken clouds
627,Bitung,ID,1.4451,125.1824,72.45,84,100,9.31,overcast clouds
628,Necochea,AR,-38.5473,-58.7368,61.79,65,100,10.65,overcast clouds
629,Sembe,CG,1.6481,14.5806,70.34,93,100,1.48,light rain
630,Marrakesh,MA,31.6315,-8.0083,75.27,60,40,9.22,scattered clouds
631,Itaituba,BR,-4.2761,-55.9836,81.45,60,98,1.9,overcast clouds
632,Palasa,IN,18.7667,84.4167,79.43,82,90,4.63,overcast clouds
633,Xuddur,SO,4.1213,43.8894,72.23,63,50,16.22,scattered clouds
634,Tahlequah,US,35.9154,-94.97,95.22,26,40,9.22,scattered clouds
635,Wewak,PG,-3.5534,143.6268,79.39,83,53,5.95,broken clouds
636,Guanica,PR,17.9716,-66.908,84.9,75,100,12.1,light rain
637,Katete,UG,-0.7818,29.7544,61.56,93,91,2.53,light rain
638,Micheweni,TZ,-4.9667,39.8333,73.38,85,10,9.89,clear sky
639,Muravlenko,RU,63.7898,74.523,47.44,69,100,12.73,overcast clouds
640,Qiryat Shemona,IL,33.2073,35.5721,75.69,72,0,2.98,clear sky
641,Ibia,BR,-19.4783,-46.5389,69.26,67,97,11.99,overcast clouds
642,U Thong,TH,14.3751,99.8923,76.59,85,100,6.11,light rain
643,Andenes,NO,69.3143,16.1194,48.92,87,100,19.57,overcast clouds
644,Clinton,US,42.587,-82.9199,85.12,60,40,10.36,scattered clouds
645,Ati,TD,13.2154,18.3353,77.0,81,99,9.75,light rain
646,Khor,RU,47.8861,134.9464,57.27,98,100,4.85,overcast clouds
647,Bandar,ID,2.05,99.75,72.64,98,100,1.74,overcast clouds
648,Hasaki,JP,35.7333,140.8333,81.0,84,100,13.38,overcast clouds
649,Honningsvag,NO,70.9821,25.9704,46.15,87,100,21.85,drizzle
650,Ladario,BR,-19.0047,-57.6017,88.41,29,0,4.97,clear sky
651,San-Pedro,CI,4.7485,-6.6363,74.79,92,83,5.14,light rain
652,Ewa Beach,US,21.3156,-158.0072,89.55,52,0,13.8,clear sky
653,Champerico,GT,14.3,-91.9167,81.14,77,95,11.18,overcast clouds
654,Le Port,RE,-20.9373,55.2919,69.8,74,3,8.12,clear sky
655,Feldbach,AT,46.9531,15.8883,54.01,76,100,6.31,overcast clouds
656,Leutkirch,DE,47.825,10.0167,47.57,87,100,10.63,light rain
657,Soyo,AO,-6.1349,12.3689,73.83,82,78,4.61,broken clouds
658,Bilibino,RU,68.0546,166.4372,31.87,70,100,3.13,overcast clouds
659,Kysyl-Syr,RU,63.8986,122.7617,28.89,90,76,7.29,broken clouds
660,Bemidji,US,47.4736,-94.8803,71.37,80,100,0.0,overcast clouds
661,La Libertad,EC,-2.2333,-80.9,69.46,83,75,12.66,broken clouds
662,Vila Franca Do Campo,PT,37.7167,-25.4333,72.01,89,22,5.5,few clouds
663,Pa Sang,TH,18.5262,98.9394,77.2,97,99,0.6,overcast clouds
664,Menongue,AO,-14.6585,17.691,61.11,26,5,2.35,clear sky
665,Severo-Yeniseyskiy,RU,60.3725,93.0408,41.85,94,92,3.42,overcast clouds
666,Motygino,RU,58.1831,94.7592,39.22,94,50,1.63,scattered clouds
667,Kuminskiy,RU,58.6667,66.5667,53.01,47,100,10.65,overcast clouds
668,Semme,FR,46.1963,1.5007,52.21,61,2,4.38,clear sky
669,Mayumba,GA,-3.432,10.6554,74.41,86,98,6.22,overcast clouds
670,Requena,ES,39.4883,-1.1004,66.52,81,65,5.35,broken clouds
671,Dongsheng,CN,39.8161,109.9776,55.87,35,16,8.32,few clouds
672,Pampa,US,35.5362,-100.9599,96.84,23,40,20.71,scattered clouds
673,Semenivka,UA,52.1783,32.5818,47.55,95,72,3.94,light rain
674,Voh,NC,-20.9667,164.7,77.22,59,0,2.86,clear sky
675,Xingyi,CN,24.1877,102.817,59.59,98,56,0.49,broken clouds
676,Ambilobe,MG,-13.2,49.05,68.13,70,96,4.83,overcast clouds
677,Marolambo,MG,-20.05,48.1167,57.11,98,8,2.42,clear sky
678,Najran,SA,17.4924,44.1277,81.25,26,92,3.18,overcast clouds
679,Mildura,AU,-34.2,142.15,53.08,79,95,14.67,overcast clouds
680,Alta Floresta,BR,-9.8756,-56.0861,91.72,28,97,2.17,overcast clouds
681,Hambantota,LK,6.1241,81.1185,78.85,79,100,14.47,overcast clouds
682,Yaan,NG,7.3833,8.5667,71.02,95,25,2.71,scattered clouds
683,Landeck,AT,47.1301,10.5636,47.14,99,100,3.67,light rain
684,Yei,SS,4.095,30.6779,65.46,96,72,1.66,broken clouds
685,Dolores,AR,-36.3132,-57.6792,59.27,72,100,10.09,light rain
686,Sayyan,YE,15.1718,44.3244,63.61,58,75,3.96,broken clouds
687,Yeppoon,AU,-23.1333,150.7333,64.18,83,4,0.76,clear sky
688,Dong Hoi,VN,17.4833,106.6,78.55,85,93,4.0,overcast clouds
689,Dire,ML,12.2833,-10.9667,72.16,96,92,3.38,moderate rain
690,Takoradi,GH,4.8845,-1.7554,75.02,91,100,7.25,overcast clouds
691,Stykkisholmur,IS,65.0757,-22.7297,45.3,81,60,6.58,broken clouds
692,Nevinnomyssk,RU,44.6267,41.9453,66.51,65,36,6.17,scattered clouds
693,Lovington,US,32.944,-103.3485,92.32,26,0,5.99,clear sky
694,Slave Lake,CA,55.2834,-114.769,49.98,93,100,6.91,overcast clouds
695,Qandala,SO,11.472,49.8728,89.49,53,72,3.49,broken clouds
696,Konevo,RU,62.1215,39.3192,47.37,96,100,7.63,overcast clouds
697,Shache,CN,38.4167,77.2406,72.72,32,94,3.71,overcast clouds
698,Auki,SB,-8.7676,160.7034,83.68,69,84,4.54,broken clouds
699,Bintulu,MY,3.1667,113.0333,75.61,94,20,4.61,few clouds
700,Taitung,TW,22.7583,121.1444,75.47,88,0,5.75,clear sky
701,Mananjary,MG,-21.2167,48.3333,64.45,93,6,4.88,light rain
702,Antalaha,MG,-14.9003,50.2788,66.6,83,60,5.75,light rain
703,Doha,QA,25.2867,51.5333,89.58,51,0,6.91,clear sky
704,Dodge City,US,37.7528,-100.0171,97.05,23,0,13.8,clear sky
705,Beringovskiy,RU,63.05,179.3167,42.31,79,98,16.37,overcast clouds
706,Khorramshahr,IR,30.4397,48.1664,76.96,27,0,4.61,clear sky
707,Lata,PT,40.1629,-8.3327,69.93,70,50,3.22,scattered clouds
708,Yumen,CN,40.2833,97.2,58.77,22,77,6.24,broken clouds
709,Camacupa,AO,-12.0167,17.4833,70.36,26,72,4.21,broken clouds
710,Machilipatnam,IN,16.1667,81.1333,79.0,83,100,8.1,overcast clouds
711,Goulburn,AU,-34.75,149.7167,44.19,87,100,22.64,overcast clouds
712,Safford,US,32.834,-109.7076,95.92,16,0,7.43,clear sky
713,Segezha,RU,63.7415,34.3222,48.34,90,100,10.18,overcast clouds
714,Saint-Louis,SN,16.3333,-15.0,88.54,51,100,14.9,overcast clouds
715,Manadhoo,MV,5.7667,73.3833,80.44,78,27,8.32,scattered clouds
716,Carballo,ES,43.213,-8.691,68.76,81,100,3.15,overcast clouds
